{"name":"必胜客宅急送(玉海园店)","picture":"http://qcloud.dpfile.com/pc/KthHDlROxvonsP6XSwFQJcL-V1O8fiv2zLGG2b9f_N50g9GKcGwT0s8S0tLexOvQtOnd3gXQdDYlAqlaVaAFeZ0rYYyiRo_EhzufqWWjTjs.jpg","point":{"coordinates":[113.20731,22.498834],"type":"Point"},"nation":"中国","province":"广东省","city":"深圳市","type":1,"typeName":"海鲜","contact":"13341634359","time_interval":"08:00-22:30"}
{"name":"蜀神砂器串串香(杏石口店)","picture":"http://p1.meituan.net/bbia/4d2fddcdd02d92a9a3adea35a441055c1502562.jpg","point":{"coordinates":[113.93516,22.817272],"type":"Point"},"nation":"中国","province":"广东省","city":"深圳市","type":4,"typeName":"咖啡厅","contact":"13643697521","time_interval":"09:00-23:00"}
{"name":"汉唐小馆(京粮广场店)","picture":"https://img.meituan.net/msmerchant/0f69ac7fda45e2ebd0b1883c4f83b12d13575.jpg%40120w_90h_1e_1c_1l_80q%7Cwatermark%3D1%26%26r%3D1%26p%3D9%26x%3D2%26y%3D2%26relative%3D1%26o%3D20","point":{"coordinates":[113.46343,22.857547],"type":"Point"},"nation":"中国","province":"广东省","city":"深圳市","type":3,"typeName":"自助餐","contact":"13121641855","time_interval":"二十四小时营业"}
{"name":"牛街煎饼东北特色烤冷面","picture":"https://p1.meituan.net/deal/3217736cff0296870096da3317747be5872636.jpg%40120w_90h_1e_1c_1l_80q%7Cwatermark%3D1%26%26r%3D1%26p%3D9%26x%3D2%26y%3D2%26relative%3D1%26o%3D20","point":{"coordinates":[113.0109452,22.395376],"type":"Point"},"nation":"中国","province":"广东省","city":"深圳市","type":2,"typeName":"小火锅","contact":"13254503730","time_interval":"二十四小时营业"}
{"name":"老闫家驴肉火烧","picture":"http://p0.meituan.net/waimaipoi/f27d6d8cb56bd88812eaf212de7c872a159744.jpg","point":{"coordinates":[113.959217,22.122552],"type":"Point"},"nation":"中国","province":"广东省","city":"深圳市","type":5,"typeName":"自助餐","contact":"13135828567","time_interval":"08:00-22:30"}
{"name":"金斗勺辣椒炒肉品质菜馆","picture":"http://p0.meituan.net/waimaipoi/919e51877242747b9118928902373588126521.jpg","point":{"coordinates":[113.23139,22.064599],"type":"Point"},"nation":"中国","province":"广东省","city":"深圳市","type":6,"typeName":"小吃","contact":"13175366437","time_interval":"08:00-22:30"}
{"name":"鲸鲲自助餐厅","picture":"http://qcloud.dpfile.com/pc/t69ONLkgiKCeN_pvC34tvgvGS32Uoz9JAir4BpGO0JM9umVb1JMGHSHLe193sXzltOnd3gXQdDYlAqlaVaAFeZ0rYYyiRo_EhzufqWWjTjs.jpg","point":{"coordinates":[113.146766,22.5401566],"type":"Point"},"nation":"中国","province":"广东省","city":"深圳市","type":6,"typeName":"小火锅","contact":"13433915744","time_interval":"10:00-23:30"}
{"name":"TEA TALK茶言(京粮广场店)","picture":"http://p1.meituan.net/mogu/ddd85343db7498a3f0ee7c824d8272de77328.jpg","point":{"coordinates":[114.84618,22.3633953],"type":"Point"},"nation":"中国","province":"广东省","city":"深圳市","type":0,"typeName":"小火锅","contact":"13743137513","time_interval":"08:00-22:30"}
{"name":"亚米亚米盐酥鸡(橙天嘉禾店)","picture":"http://p0.meituan.net/mogu/137a6453ffa3f9c70a35cf35fb06b5ab89876.jpg","point":{"coordinates":[113.557674,22.423353],"type":"Point"},"nation":"中国","province":"广东省","city":"深圳市","type":4,"typeName":"小火锅","contact":"13270499710","time_interval":"09:00-23:00"}
{"name":"旺季串吧","picture":"http://p0.meituan.net/scarlett/e54f0c0b35e42cc502d1cb82bb26666374404.png","point":{"coordinates":[113.67266,22.778651],"type":"Point"},"nation":"中国","province":"广东省","city":"深圳市","type":2,"typeName":"西餐","contact":"13259338825","time_interval":"二十四小时营业"}
{"name":"京城百味品香饺子宴(田村店)","picture":"https://img.meituan.net/msmerchant/4e47d86ec36055311d781bd159edda6886062.jpg%40120w_90h_1e_1c_1l_80q%7Cwatermark%3D1%26%26r%3D1%26p%3D9%26x%3D2%26y%3D2%26relative%3D1%26o%3D20","point":{"coordinates":[114.7353485,22.069488],"type":"Point"},"nation":"中国","province":"广东省","city":"深圳市","type":6,"typeName":"炸鸡炸串","contact":"13555547547","time_interval":"10:00-23:30"}
{"name":"嘉和一品粥(永定路店)","picture":"http://qcloud.dpfile.com/pc/DxFv8PAqjci6fqOwCgjhEvdd7zl9n9GW_1h2kEhhnphcIGL6n6YbPhgO9ekFYu4ttOnd3gXQdDYlAqlaVaAFeZ0rYYyiRo_EhzufqWWjTjs.jpg","point":{"coordinates":[114.7214835,22.345833],"type":"Point"},"nation":"中国","province":"广东省","city":"深圳市","type":1,"typeName":"私房菜","contact":"13547047645","time_interval":"09:00-23:00"}
{"name":"漫猫咖啡","picture":"http://p1.meituan.net/mogu/4826685bade81769e146dd0d81e6043c70250.jpg","point":{"coordinates":[113.1637127,22.180677],"type":"Point"},"nation":"中国","province":"广东省","city":"深圳市","type":4,"typeName":"烤鸭","contact":"13182553464","time_interval":"08:00-22:30"}
{"name":"玉泉嘉园餐厅","picture":"http://qcloud.dpfile.com/pc/KthHDlROxvonsP6XSwFQJcL-V1O8fiv2zLGG2b9f_N50g9GKcGwT0s8S0tLexOvQtOnd3gXQdDYlAqlaVaAFeZ0rYYyiRo_EhzufqWWjTjs.jpg","point":{"coordinates":[113.460316,22.74752],"type":"Point"},"nation":"中国","province":"广东省","city":"深圳市","type":2,"typeName":"麻辣烫","contact":"13841836868","time_interval":"08:00-22:30"}
{"name":"蜀兒郎鲜牛肉火锅","picture":"https://p1.meituan.net/wmproduct/a7599b61e90819dc5d744e898e5646ee630900.jpg%40120w_90h_1e_1c_1l_80q%7Cwatermark%3D1%26%26r%3D1%26p%3D9%26x%3D2%26y%3D2%26relative%3D1%26o%3D20","point":{"coordinates":[113.7687032,22.267556],"type":"Point"},"nation":"中国","province":"广东省","city":"深圳市","type":6,"typeName":"京菜","contact":"13853867284","time_interval":"09:00-23:00"}
{"name":"味多美(京粮广场店)","picture":"http://p1.meituan.net/bbia/3a87d8777f5b389c43a4029cad1d5fa958446.jpg","point":{"coordinates":[114.6823645,22.119112],"type":"Point"},"nation":"中国","province":"广东省","city":"深圳市","type":7,"typeName":"快餐简餐","contact":"13713847688","time_interval":"二十四小时营业"}
{"name":"快乐柠檬(京粮广场店)","picture":"https://img.meituan.net/msmerchant/1b2298c16b4fb14098acb476822cd29d547884.jpg%40120w_90h_1e_1c_1l_80q%7Cwatermark%3D1%26%26r%3D1%26p%3D9%26x%3D2%26y%3D2%26relative%3D1%26o%3D20","point":{"coordinates":[113.91819,22.4814594],"type":"Point"},"nation":"中国","province":"广东省","city":"深圳市","type":2,"typeName":"老北京火锅","contact":"13912136352","time_interval":"二十四小时营业"}
{"name":"阳坊涮肉","picture":"https://img.meituan.net/msmerchant/05dd5da33b158745cace283d483ce26b99547.jpg%40120w_90h_1e_1c_1l_80q%7Cwatermark%3D1%26%26r%3D1%26p%3D9%26x%3D2%26y%3D2%26relative%3D1%26o%3D20","point":{"coordinates":[114.4073706,22.332729],"type":"Point"},"nation":"中国","province":"广东省","city":"深圳市","type":7,"typeName":"卤味鸭脖","contact":"13821690573","time_interval":"10:00-23:30"}
{"name":"味多美(京粮广场店)","picture":"http://qcloud.dpfile.com/pc/e8d7Gp7eIzFJderiLyoU8m1WLqfOrCzEa6GvDj1XivuPehjCOzPN2DK1MQtsjbXYtOnd3gXQdDYlAqlaVaAFeZ0rYYyiRo_EhzufqWWjTjs.jpg","point":{"coordinates":[114.2316436,22.272417],"type":"Point"},"nation":"中国","province":"广东省","city":"深圳市","type":2,"typeName":"小龙虾","contact":"13379725940","time_interval":"10:00-23:30"}
{"name":"每日优鲜(阜石路店)","picture":"http://p0.meituan.net/dealwatera/ad978519f3b49f9a7f88b1d47add1f7619861.jpg","point":{"coordinates":[113.706654,22.395167],"type":"Point"},"nation":"中国","province":"广东省","city":"深圳市","type":7,"typeName":"烤串","contact":"13501782227","time_interval":"09:00-23:00"}
{"name":"TEA TALK茶言(京粮广场店)","picture":"https://p1.meituan.net/xianfu/27435ec060f77ac1f7693a45cc211dc371112.jpg%40120w_90h_1e_1c_1l_80q%7Cwatermark%3D1%26%26r%3D1%26p%3D9%26x%3D2%26y%3D2%26relative%3D1%26o%3D20","point":{"coordinates":[113.45673,22.264036],"type":"Point"},"nation":"中国","province":"广东省","city":"深圳市","type":4,"typeName":"快餐简餐","contact":"13677463632","time_interval":"09:00-23:00"}
{"name":"百叶居·老北京涮羊肉(田村店)","picture":"https://img.meituan.net/msmerchant/0f69ac7fda45e2ebd0b1883c4f83b12d13575.jpg%40120w_90h_1e_1c_1l_80q%7Cwatermark%3D1%26%26r%3D1%26p%3D9%26x%3D2%26y%3D2%26relative%3D1%26o%3D20","point":{"coordinates":[114.1429612,22.892783],"type":"Point"},"nation":"中国","province":"广东省","city":"深圳市","type":4,"typeName":"卤味鸭脖","contact":"13638185303","time_interval":"08:00-22:30"}
{"name":"赛百味(京粮广场店)","picture":"https://img.meituan.net/msmerchant/d5a44266714716ab235402bc7923b836310050.png%40120w_90h_1e_1c_1l_80q%7Cwatermark%3D1%26%26r%3D1%26p%3D9%26x%3D2%26y%3D2%26relative%3D1%26o%3D20","point":{"coordinates":[113.834448,22.4632523],"type":"Point"},"nation":"中国","province":"广东省","city":"深圳市","type":5,"typeName":"四川火锅","contact":"13592235388","time_interval":"08:00-22:30"}
{"name":"味多美(京粮广场店)","picture":"https://p1.meituan.net/wmproduct/a7599b61e90819dc5d744e898e5646ee630900.jpg%40120w_90h_1e_1c_1l_80q%7Cwatermark%3D1%26%26r%3D1%26p%3D9%26x%3D2%26y%3D2%26relative%3D1%26o%3D20","point":{"coordinates":[113.1164772,22.318174],"type":"Point"},"nation":"中国","province":"广东省","city":"深圳市","type":1,"typeName":"馄饨","contact":"13142461543","time_interval":"09:00-23:00"}
{"name":"麦当劳(田村路店)","picture":"https://img.meituan.net/msmerchant/2e77f641282ec6cbba2d50a9b965927c60248.jpg%40120w_90h_1e_1c_1l_80q%7Cwatermark%3D1%26%26r%3D1%26p%3D9%26x%3D2%26y%3D2%26relative%3D1%26o%3D20","point":{"coordinates":[114.2579429,22.6636367],"type":"Point"},"nation":"中国","province":"广东省","city":"深圳市","type":2,"typeName":"包子","contact":"13702461036","time_interval":"08:00-22:30"}
{"name":"麦当劳(砂石厂路店)","picture":"http://qcloud.dpfile.com/pc/yQYB5HzJo7B34rLP3qTY8G2TRQYeuFHeOBCkJSZXtuCvukqXIXNch9e2cjMnjkwbtOnd3gXQdDYlAqlaVaAFeZ0rYYyiRo_EhzufqWWjTjs.jpg","point":{"coordinates":[114.96962,22.40232],"type":"Point"},"nation":"中国","province":"广东省","city":"深圳市","type":0,"typeName":"潮汕菜","contact":"13013858534","time_interval":"二十四小时营业"}
{"name":"天磊串吧(田村店)","picture":"http://p1.meituan.net/bbia/3a87d8777f5b389c43a4029cad1d5fa958446.jpg","point":{"coordinates":[113.1217496,22.1316518],"type":"Point"},"nation":"中国","province":"广东省","city":"深圳市","type":3,"typeName":"烤鱼","contact":"13773034310","time_interval":"二十四小时营业"}
{"name":"家里婆水饺自助","picture":"http://p0.meituan.net/mogu/83e34d49ddfe0062f9248fe56164360459948.jpg","point":{"coordinates":[114.609284,22.57493],"type":"Point"},"nation":"中国","province":"广东省","city":"深圳市","type":3,"typeName":"湘菜","contact":"13684344571","time_interval":"08:00-22:30"}
{"name":"麦当劳(砂石厂路店)","picture":"https://p1.meituan.net/wmproduct/ba18ac15822e6a0faf625ab91ac755ca442021.jpg%40120w_90h_1e_1c_1l_80q%7Cwatermark%3D1%26%26r%3D1%26p%3D9%26x%3D2%26y%3D2%26relative%3D1%26o%3D20","point":{"coordinates":[114.383562,22.178168],"type":"Point"},"nation":"中国","province":"广东省","city":"深圳市","type":4,"typeName":"湘菜","contact":"13163894243","time_interval":"08:00-22:30"}
{"name":"山东酥肉","picture":"http://qcloud.dpfile.com/pc/36UUlyoXwx4VxjsYS3UVAM707Wn-uzGXWRTaFpo4jL4MyUnxe74hwCXsA8S86qdXtOnd3gXQdDYlAqlaVaAFeZ0rYYyiRo_EhzufqWWjTjs.jpg","point":{"coordinates":[114.571603,22.701319],"type":"Point"},"nation":"中国","province":"广东省","city":"深圳市","type":3,"typeName":"小龙虾","contact":"13442518924","time_interval":"09:00-23:00"}
{"name":"清真金响泉水涮肉(四季青桥店)","picture":"http://p0.meituan.net/bbia/14c2408ab196d626a523250d7e685a08749364.png","point":{"coordinates":[113.6486838,22.711447],"type":"Point"},"nation":"中国","province":"广东省","city":"深圳市","type":2,"typeName":"西餐","contact":"13346626422","time_interval":"08:00-22:30"}
{"name":"正福居老北京涮肉","picture":"http://qcloud.dpfile.com/pc/Z5nGV9wqw_mNNXDahkFfi8lOIbzLAkZ8WHM_HOSDOqH7IVnGZWkZOnV-QKNjInIatOnd3gXQdDYlAqlaVaAFeZ0rYYyiRo_EhzufqWWjTjs.jpg","point":{"coordinates":[113.51734,22.06635],"type":"Point"},"nation":"中国","province":"广东省","city":"深圳市","type":6,"typeName":"自助餐","contact":"13905662953","time_interval":"09:00-23:00"}
{"name":"西部烧烤(京粮广场店)","picture":"http://p0.meituan.net/waimaipoi/f27d6d8cb56bd88812eaf212de7c872a159744.jpg","point":{"coordinates":[113.4376373,22.887432],"type":"Point"},"nation":"中国","province":"广东省","city":"深圳市","type":1,"typeName":"快餐简餐","contact":"13247674029","time_interval":"08:00-22:30"}
{"name":"农家地锅鸡","picture":"http://qcloud.dpfile.com/pc/Z5nGV9wqw_mNNXDahkFfi8lOIbzLAkZ8WHM_HOSDOqH7IVnGZWkZOnV-QKNjInIatOnd3gXQdDYlAqlaVaAFeZ0rYYyiRo_EhzufqWWjTjs.jpg","point":{"coordinates":[114.5548172,22.736317],"type":"Point"},"nation":"中国","province":"广东省","city":"深圳市","type":6,"typeName":"农家菜","contact":"13650086154","time_interval":"08:00-22:30"}
{"name":"晋哥哥刀削面","picture":"http://qcloud.dpfile.com/pc/FXvznVr8d11fatZPI7P6P4tOcaFyZ88X4svO9Ybwt9KnaWB5pQE-0MENC6SaYjHltOnd3gXQdDYlAqlaVaAFeZ0rYYyiRo_EhzufqWWjTjs.jpg","point":{"coordinates":[114.835755,22.5856066],"type":"Point"},"nation":"中国","province":"广东省","city":"深圳市","type":3,"typeName":"卤味鸭脖","contact":"13270465087","time_interval":"二十四小时营业"}
{"name":"每日优鲜(阜石路店)","picture":"http://qcloud.dpfile.com/pc/AUlC98uEpPUs-kDAmLtJBCwDv_Pgmd-l5DLyM5IFiNUE6GwR889-eGUMyMSWxJjitOnd3gXQdDYlAqlaVaAFeZ0rYYyiRo_EhzufqWWjTjs.jpg","point":{"coordinates":[113.511182,22.671242],"type":"Point"},"nation":"中国","province":"广东省","city":"深圳市","type":4,"typeName":"炸鸡炸串","contact":"13766112467","time_interval":"09:00-23:00"}
{"name":"萨莉亚(海淀京粮广场店)","picture":"https://img.meituan.net/msmerchant/35c797b7cd7ef390fb6abeec264c5c23345360.jpg%40120w_90h_1e_1c_1l_80q%7Cwatermark%3D1%26%26r%3D1%26p%3D9%26x%3D2%26y%3D2%26relative%3D1%26o%3D20","point":{"coordinates":[113.302582,22.07555],"type":"Point"},"nation":"中国","province":"广东省","city":"深圳市","type":7,"typeName":"潮汕菜","contact":"13333872845","time_interval":"08:00-22:30"}
{"name":"西山小镇","picture":"http://p0.meituan.net/waimaipoi/919e51877242747b9118928902373588126521.jpg","point":{"coordinates":[114.283527,22.6125784],"type":"Point"},"nation":"中国","province":"广东省","city":"深圳市","type":2,"typeName":"湘菜","contact":"13675134272","time_interval":"09:00-23:00"}
{"name":"可能湘菜馆(玉泉路店)","picture":"http://p0.meituan.net/dealwatera/ad978519f3b49f9a7f88b1d47add1f7619861.jpg","point":{"coordinates":[114.5695426,22.539385],"type":"Point"},"nation":"中国","province":"广东省","city":"深圳市","type":3,"typeName":"烤鸭","contact":"13131702416","time_interval":"08:00-22:30"}
{"name":"京深海鲜城","picture":"http://qcloud.dpfile.com/pc/DxFv8PAqjci6fqOwCgjhEvdd7zl9n9GW_1h2kEhhnphcIGL6n6YbPhgO9ekFYu4ttOnd3gXQdDYlAqlaVaAFeZ0rYYyiRo_EhzufqWWjTjs.jpg","point":{"coordinates":[114.137293,22.134716],"type":"Point"},"nation":"中国","province":"广东省","city":"深圳市","type":7,"typeName":"甜品","contact":"13684114137","time_interval":"08:00-22:30"}
{"name":"农家地锅鸡","picture":"http://qcloud.dpfile.com/pc/Wf9towEIgijy7z88T_sXsbk77tbG4ukjF0oWxoZ5X7Kx-vxa7-jRdMqvX-dxFsWztOnd3gXQdDYlAqlaVaAFeZ0rYYyiRo_EhzufqWWjTjs.jpg","point":{"coordinates":[113.98197,22.1769294],"type":"Point"},"nation":"中国","province":"广东省","city":"深圳市","type":4,"typeName":"快餐简餐","contact":"13536572364","time_interval":"二十四小时营业"}
{"name":"万家小馆","picture":"http://qcloud.dpfile.com/pc/J1KSjPPmwCa1LlP0ztugRAVIqfv12HyMZUvW7h5sb4-UCtqyR-ocveGozzal2Q_9tOnd3gXQdDYlAqlaVaAFeZ0rYYyiRo_EhzufqWWjTjs.jpg","point":{"coordinates":[113.5051757,22.83928],"type":"Point"},"nation":"中国","province":"广东省","city":"深圳市","type":5,"typeName":"卤味鸭脖","contact":"13178646322","time_interval":"09:00-23:00"}
{"name":"九头鹰酒家(田村店)","picture":"https://p1.meituan.net/xianfu/7be8ee0fdbfeae7dcd8e0156a4e0be34611689.jpg%40120w_90h_1e_1c_1l_80q%7Cwatermark%3D1%26%26r%3D1%26p%3D9%26x%3D2%26y%3D2%26relative%3D1%26o%3D20","point":{"coordinates":[114.961097,22.2883769],"type":"Point"},"nation":"中国","province":"广东省","city":"深圳市","type":1,"typeName":"水果生鲜","contact":"13486362381","time_interval":"10:00-23:30"}
{"name":"萨莉亚(海淀京粮广场店)","picture":"http://qcloud.dpfile.com/pc/_Y4xPUFBWPdAxIgxc5OrYfFUzMeih6QS3Vjn-oHBwatXOxlrP9OrbeXc-9wcX0t4tOnd3gXQdDYlAqlaVaAFeZ0rYYyiRo_EhzufqWWjTjs.jpg","point":{"coordinates":[114.82733,22.9547332],"type":"Point"},"nation":"中国","province":"广东省","city":"深圳市","type":0,"typeName":"饺子","contact":"13129940008","time_interval":"二十四小时营业"}
{"name":"谷子帝五谷煎饼","picture":"http://qcloud.dpfile.com/pc/t69ONLkgiKCeN_pvC34tvgvGS32Uoz9JAir4BpGO0JM9umVb1JMGHSHLe193sXzltOnd3gXQdDYlAqlaVaAFeZ0rYYyiRo_EhzufqWWjTjs.jpg","point":{"coordinates":[114.027852,22.6375398],"type":"Point"},"nation":"中国","province":"广东省","city":"深圳市","type":5,"typeName":"小吃","contact":"13844416956","time_interval":"08:00-22:30"}
{"name":"老刺参威海家乡菜(老刺参)","picture":"https://img.meituan.net/msmerchant/4e47d86ec36055311d781bd159edda6886062.jpg%40120w_90h_1e_1c_1l_80q%7Cwatermark%3D1%26%26r%3D1%26p%3D9%26x%3D2%26y%3D2%26relative%3D1%26o%3D20","point":{"coordinates":[114.96506,22.1716158],"type":"Point"},"nation":"中国","province":"广东省","city":"深圳市","type":1,"typeName":"快餐简餐","contact":"13341134661","time_interval":"09:00-23:00"}
{"name":"天磊串吧(田村店)","picture":"https://img.meituan.net/msmerchant/2e77f641282ec6cbba2d50a9b965927c60248.jpg%40120w_90h_1e_1c_1l_80q%7Cwatermark%3D1%26%26r%3D1%26p%3D9%26x%3D2%26y%3D2%26relative%3D1%26o%3D20","point":{"coordinates":[113.846867,22.136284],"type":"Point"},"nation":"中国","province":"广东省","city":"深圳市","type":2,"typeName":"烤鱼","contact":"13983149622","time_interval":"08:00-22:30"}
{"name":"叫我嘎嘎鸭血粉丝汤(京粮广场店)","picture":"http://qcloud.dpfile.com/pc/1a_Hi0glKpq8iKRQvv9CwZ7sDDPyHjBwemvImrXjJYR0_pEt7fICfQKaolL_tgpztOnd3gXQdDYlAqlaVaAFeZ0rYYyiRo_EhzufqWWjTjs.jpg","point":{"coordinates":[114.262466,22.53453],"type":"Point"},"nation":"中国","province":"广东省","city":"深圳市","type":6,"typeName":"海鲜","contact":"13862662580","time_interval":"09:00-23:00"}
{"name":"家里婆水饺自助","picture":"http://p1.meituan.net/bbia/d00fb57d2fbac359c3e0b2e2bf7c4b56337801.jpg","point":{"coordinates":[113.8560729,22.58146],"type":"Point"},"nation":"中国","province":"广东省","city":"深圳市","type":6,"typeName":"西餐","contact":"13562710470","time_interval":"08:00-22:30"}
{"name":"花签签成都冒菜·巫山烤鱼(京粮广场店)","picture":"http://qcloud.dpfile.com/pc/AyYKgbS2EZqiEKpeVS_fZhr5PU2lz2GdYN2TluM_rdPoGeXp6aqROga_t44tHedgtOnd3gXQdDYlAqlaVaAFeZ0rYYyiRo_EhzufqWWjTjs.jpg","point":{"coordinates":[113.6258445,22.971152],"type":"Point"},"nation":"中国","province":"广东省","city":"深圳市","type":7,"typeName":"串串香","contact":"13557268288","time_interval":"09:00-23:00"}
{"name":"辉记潮汕砂锅粥(京粮广场店)","picture":"http://qcloud.dpfile.com/pc/Wf9towEIgijy7z88T_sXsbk77tbG4ukjF0oWxoZ5X7Kx-vxa7-jRdMqvX-dxFsWztOnd3gXQdDYlAqlaVaAFeZ0rYYyiRo_EhzufqWWjTjs.jpg","point":{"coordinates":[113.116675,22.5558835],"type":"Point"},"nation":"中国","province":"广东省","city":"深圳市","type":5,"typeName":"酸菜鱼/水煮鱼","contact":"13227581595","time_interval":"09:00-23:00"}
{"name":"和合谷(田村店)","picture":"http://qcloud.dpfile.com/pc/GuepgdK7O3i45eA443mzwMxs93LVoZfyU9eTPRgEP-UiWckIbiCo3OTQ4xPEhrcttOnd3gXQdDYlAqlaVaAFeZ0rYYyiRo_EhzufqWWjTjs.jpg","point":{"coordinates":[114.913652,22.77727],"type":"Point"},"nation":"中国","province":"广东省","city":"深圳市","type":6,"typeName":"湘菜","contact":"13565428837","time_interval":"09:00-23:00"}
{"name":"亚米亚米盐酥鸡(橙天嘉禾店)","picture":"http://qcloud.dpfile.com/pc/J1KSjPPmwCa1LlP0ztugRAVIqfv12HyMZUvW7h5sb4-UCtqyR-ocveGozzal2Q_9tOnd3gXQdDYlAqlaVaAFeZ0rYYyiRo_EhzufqWWjTjs.jpg","point":{"coordinates":[114.2584457,22.438837],"type":"Point"},"nation":"中国","province":"广东省","city":"深圳市","type":2,"typeName":"面包烘焙","contact":"13822832585","time_interval":"09:00-23:00"}
{"name":"庆丰包子铺(田村店)","picture":"https://img.meituan.net/msmerchant/033867a440841ad5eda6ddc61653f56934922.jpg%40120w_90h_1e_1c_1l_80q%7Cwatermark%3D1%26%26r%3D1%26p%3D9%26x%3D2%26y%3D2%26relative%3D1%26o%3D20","point":{"coordinates":[114.7375663,22.1531217],"type":"Point"},"nation":"中国","province":"广东省","city":"深圳市","type":4,"typeName":"炸鸡炸串","contact":"13354116418","time_interval":"10:00-23:30"}
{"name":"重庆吃饭公司","picture":"http://p0.meituan.net/waimaipoi/919e51877242747b9118928902373588126521.jpg","point":{"coordinates":[114.024447,22.61168],"type":"Point"},"nation":"中国","province":"广东省","city":"深圳市","type":2,"typeName":"苏浙菜","contact":"13845887267","time_interval":"09:00-23:00"}
{"name":"嘉和一品粥(永定路店)","picture":"https://p1.meituan.net/wmproduct/bf8aaebfbf424ad2cca1c8a87876cc1f294599.jpg%40120w_90h_1e_1c_1l_80q%7Cwatermark%3D1%26%26r%3D1%26p%3D9%26x%3D2%26y%3D2%26relative%3D1%26o%3D20","point":{"coordinates":[113.9144514,22.6733757],"type":"Point"},"nation":"中国","province":"广东省","city":"深圳市","type":6,"typeName":"面包烘焙","contact":"13342653023","time_interval":"09:00-23:00"}
{"name":"花签签成都冒菜·巫山烤鱼(京粮广场店)","picture":"http://qcloud.dpfile.com/pc/1a_Hi0glKpq8iKRQvv9CwZ7sDDPyHjBwemvImrXjJYR0_pEt7fICfQKaolL_tgpztOnd3gXQdDYlAqlaVaAFeZ0rYYyiRo_EhzufqWWjTjs.jpg","point":{"coordinates":[113.44365,22.384867],"type":"Point"},"nation":"中国","province":"广东省","city":"深圳市","type":4,"typeName":"烤串","contact":"13598386952","time_interval":"09:00-23:00"}
{"name":"正福居老北京涮肉","picture":"http://p1.meituan.net/bbia/4d2fddcdd02d92a9a3adea35a441055c1502562.jpg","point":{"coordinates":[113.565624,22.15456],"type":"Point"},"nation":"中国","province":"广东省","city":"深圳市","type":3,"typeName":"小吃","contact":"13594268251","time_interval":"08:00-22:30"}
{"name":"百叶居·老北京涮羊肉(田村店)","picture":"https://img.meituan.net/msmerchant/eb140485a3c895497026a35a9016b5c035283.jpg%40120w_90h_1e_1c_1l_80q%7Cwatermark%3D1%26%26r%3D1%26p%3D9%26x%3D2%26y%3D2%26relative%3D1%26o%3D20","point":{"coordinates":[113.384105,22.258555],"type":"Point"},"nation":"中国","province":"广东省","city":"深圳市","type":7,"typeName":"馄饨","contact":"13778929884","time_interval":"二十四小时营业"}
{"name":"可能湘菜馆(玉泉路店)","picture":"http://qcloud.dpfile.com/pc/ALyd1qtzzcCq4kid868Qz80zROASF2BietlN_78zqpxdcfOP9aI9-XQw8T5ZHFEytOnd3gXQdDYlAqlaVaAFeZ0rYYyiRo_EhzufqWWjTjs.jpg","point":{"coordinates":[114.0866933,22.34118],"type":"Point"},"nation":"中国","province":"广东省","city":"深圳市","type":2,"typeName":"茶饮果汁","contact":"13882084894","time_interval":"09:00-23:00"}
{"name":"西部烧烤(京粮广场店)","picture":"https://img.meituan.net/msmerchant/5d6c124ca4dbe83c69d76693efd3bff3217008.jpg%40120w_90h_1e_1c_1l_80q%7Cwatermark%3D1%26%26r%3D1%26p%3D9%26x%3D2%26y%3D2%26relative%3D1%26o%3D20","point":{"coordinates":[114.9443514,22.20264],"type":"Point"},"nation":"中国","province":"广东省","city":"深圳市","type":7,"typeName":"小吃","contact":"13863185247","time_interval":"09:00-23:00"}
{"name":"张亮麻辣烫","picture":"https://img.meituan.net/msmerchant/bc2b06e8054a4888d36b9f1a368f673b76375.jpg%40120w_90h_1e_1c_1l_80q%7Cwatermark%3D1%26%26r%3D1%26p%3D9%26x%3D2%26y%3D2%26relative%3D1%26o%3D20","point":{"coordinates":[113.84327,22.429055],"type":"Point"},"nation":"中国","province":"广东省","city":"深圳市","type":3,"typeName":"农家菜","contact":"13391121316","time_interval":"08:00-22:30"}
{"name":"麦当劳(砂石厂路店)","picture":"http://qcloud.dpfile.com/pc/e8d7Gp7eIzFJderiLyoU8m1WLqfOrCzEa6GvDj1XivuPehjCOzPN2DK1MQtsjbXYtOnd3gXQdDYlAqlaVaAFeZ0rYYyiRo_EhzufqWWjTjs.jpg","point":{"coordinates":[113.1924307,22.5253045],"type":"Point"},"nation":"中国","province":"广东省","city":"深圳市","type":3,"typeName":"快餐简餐","contact":"13714661344","time_interval":"10:00-23:30"}
{"name":"晋哥哥刀削面","picture":"http://qcloud.dpfile.com/pc/x9zhN96lLqBuogy1L8HACYsGasArQdKuu1KaLvLTNrKC8tmzzKd4P_r64CXeZIK2tOnd3gXQdDYlAqlaVaAFeZ0rYYyiRo_EhzufqWWjTjs.jpg","point":{"coordinates":[113.31334,22.78775],"type":"Point"},"nation":"中国","province":"广东省","city":"深圳市","type":1,"typeName":"泰国菜","contact":"13688622033","time_interval":"09:00-23:00"}
{"name":"正福居老北京涮肉","picture":"http://p0.meituan.net/scarlett/e54f0c0b35e42cc502d1cb82bb26666374404.png","point":{"coordinates":[113.3584417,22.755064],"type":"Point"},"nation":"中国","province":"广东省","city":"深圳市","type":5,"typeName":"快餐简餐","contact":"13495426434","time_interval":"10:00-23:30"}
{"name":"聚宝屯海鲜家常菜","picture":"https://p1.meituan.net/wmproduct/a7599b61e90819dc5d744e898e5646ee630900.jpg%40120w_90h_1e_1c_1l_80q%7Cwatermark%3D1%26%26r%3D1%26p%3D9%26x%3D2%26y%3D2%26relative%3D1%26o%3D20","point":{"coordinates":[113.821367,22.82362],"type":"Point"},"nation":"中国","province":"广东省","city":"深圳市","type":0,"typeName":"西餐","contact":"13281899027","time_interval":"08:00-22:30"}
{"name":"天祥斋老北京八大碗烧烤家常菜","picture":"http://p0.meituan.net/mogu/87787083453cd3cf4d6dba040814280254078.jpg","point":{"coordinates":[114.779874,22.728681],"type":"Point"},"nation":"中国","province":"广东省","city":"深圳市","type":4,"typeName":"快餐简餐","contact":"13070337112","time_interval":"10:00-23:30"}
{"name":"锦绣海鲜","picture":"http://qcloud.dpfile.com/pc/FXvznVr8d11fatZPI7P6P4tOcaFyZ88X4svO9Ybwt9KnaWB5pQE-0MENC6SaYjHltOnd3gXQdDYlAqlaVaAFeZ0rYYyiRo_EhzufqWWjTjs.jpg","point":{"coordinates":[114.747488,22.975146],"type":"Point"},"nation":"中国","province":"广东省","city":"深圳市","type":3,"typeName":"老北京火锅","contact":"13649498433","time_interval":"10:00-23:30"}
{"name":"呷哺呷哺(海淀田村物美店)","picture":"http://qcloud.dpfile.com/pc/GGZmu4r-Ddyzbm0cLrzBCiaKTBHrYV8EesZevlP4l9hdcfOP9aI9-XQw8T5ZHFEytOnd3gXQdDYlAqlaVaAFeZ0rYYyiRo_EhzufqWWjTjs.jpg","point":{"coordinates":[113.1261895,22.9337719],"type":"Point"},"nation":"中国","province":"广东省","city":"深圳市","type":2,"typeName":"苏浙菜","contact":"13917112832","time_interval":"08:00-22:30"}
{"name":"北平楼(田村店)","picture":"https://p0.meituan.net/deal/__43137111__7961420.jpg%40120w_90h_1e_1c_1l_80q%7Cwatermark%3D1%26%26r%3D1%26p%3D9%26x%3D2%26y%3D2%26relative%3D1%26o%3D20","point":{"coordinates":[114.6574728,22.3493836],"type":"Point"},"nation":"中国","province":"广东省","city":"深圳市","type":3,"typeName":"西北菜","contact":"13797145874","time_interval":"09:00-23:00"}
{"name":"张亮麻辣烫","picture":"http://p0.meituan.net/mogu/137a6453ffa3f9c70a35cf35fb06b5ab89876.jpg","point":{"coordinates":[113.725832,22.452367],"type":"Point"},"nation":"中国","province":"广东省","city":"深圳市","type":2,"typeName":"烤鸭","contact":"13666934622","time_interval":"08:00-22:30"}
{"name":"嘉和一品粥(永定路店)","picture":"https://img.meituan.net/msmerchant/0f69ac7fda45e2ebd0b1883c4f83b12d13575.jpg%40120w_90h_1e_1c_1l_80q%7Cwatermark%3D1%26%26r%3D1%26p%3D9%26x%3D2%26y%3D2%26relative%3D1%26o%3D20","point":{"coordinates":[114.366136,22.3710834],"type":"Point"},"nation":"中国","province":"广东省","city":"深圳市","type":2,"typeName":"快餐简餐","contact":"13249341124","time_interval":"二十四小时营业"}
{"name":"金斗勺辣椒炒肉品质菜馆","picture":"http://p0.meituan.net/waimaipoi/919e51877242747b9118928902373588126521.jpg","point":{"coordinates":[113.130893,22.48906],"type":"Point"},"nation":"中国","province":"广东省","city":"深圳市","type":3,"typeName":"茶饮果汁","contact":"13255888069","time_interval":"09:00-23:00"}
{"name":"云闲茶楼","picture":"http://qcloud.dpfile.com/pc/AyYKgbS2EZqiEKpeVS_fZhr5PU2lz2GdYN2TluM_rdPoGeXp6aqROga_t44tHedgtOnd3gXQdDYlAqlaVaAFeZ0rYYyiRo_EhzufqWWjTjs.jpg","point":{"coordinates":[113.548688,22.6735345],"type":"Point"},"nation":"中国","province":"广东省","city":"深圳市","type":3,"typeName":"馄饨","contact":"13622686865","time_interval":"二十四小时营业"}
{"name":"阳坊涮肉","picture":"https://p1.meituan.net/wmproduct/822bd387dd9dc48b15a50ec44dd69e7d280048.jpg%40120w_90h_1e_1c_1l_80q%7Cwatermark%3D1%26%26r%3D1%26p%3D9%26x%3D2%26y%3D2%26relative%3D1%26o%3D20","point":{"coordinates":[114.714458,22.96495],"type":"Point"},"nation":"中国","province":"广东省","city":"深圳市","type":4,"typeName":"老北京火锅","contact":"13332564856","time_interval":"09:00-23:00"}
{"name":"庞阿姨乡面","picture":"http://p0.meituan.net/waimaipoi/f27d6d8cb56bd88812eaf212de7c872a159744.jpg","point":{"coordinates":[114.555251,22.175144],"type":"Point"},"nation":"中国","province":"广东省","city":"深圳市","type":0,"typeName":"快餐简餐","contact":"13183720177","time_interval":"08:00-22:30"}
{"name":"绝味鸭脖(永定路店)","picture":"http://p0.meituan.net/bbia/56130275e2311ba7698229ee64b9315e204647.jpg","point":{"coordinates":[113.030237,22.413615],"type":"Point"},"nation":"中国","province":"广东省","city":"深圳市","type":0,"typeName":"馄饨","contact":"13341751788","time_interval":"10:00-23:30"}
{"name":"椒颜酸菜小鱼(京粮广场店)","picture":"https://img.meituan.net/msmerchant/fb4aa47ea2c98759a46221fca691906181861.jpg%40120w_90h_1e_1c_1l_80q%7Cwatermark%3D1%26%26r%3D1%26p%3D9%26x%3D2%26y%3D2%26relative%3D1%26o%3D20","point":{"coordinates":[113.368513,22.58761],"type":"Point"},"nation":"中国","province":"广东省","city":"深圳市","type":0,"typeName":"海鲜","contact":"13077432122","time_interval":"09:00-23:00"}
{"name":"明洞韩式私房炸鸡(田村店)","picture":"http://p1.meituan.net/bbia/4d2fddcdd02d92a9a3adea35a441055c1502562.jpg","point":{"coordinates":[114.563054,22.724817],"type":"Point"},"nation":"中国","province":"广东省","city":"深圳市","type":5,"typeName":"湘菜","contact":"13393021105","time_interval":"09:00-23:00"}
{"name":"家里婆水饺自助","picture":"https://p1.meituan.net/xianfu/27435ec060f77ac1f7693a45cc211dc371112.jpg%40120w_90h_1e_1c_1l_80q%7Cwatermark%3D1%26%26r%3D1%26p%3D9%26x%3D2%26y%3D2%26relative%3D1%26o%3D20","point":{"coordinates":[114.4882123,22.741682],"type":"Point"},"nation":"中国","province":"广东省","city":"深圳市","type":3,"typeName":"面包烘焙","contact":"13587387661","time_interval":"二十四小时营业"}
{"name":"海外大酒楼","picture":"https://img.meituan.net/msmerchant/1696396bd675e5fd614530b9703896d817767.jpg%40120w_90h_1e_1c_1l_80q%7Cwatermark%3D1%26%26r%3D1%26p%3D9%26x%3D2%26y%3D2%26relative%3D1%26o%3D20","point":{"coordinates":[114.63144,22.557438],"type":"Point"},"nation":"中国","province":"广东省","city":"深圳市","type":0,"typeName":"快餐简餐","contact":"13553144582","time_interval":"08:00-22:30"}
{"name":"社会主义大食堂(什坊院店)","picture":"https://img.meituan.net/msmerchant/4b01cd21bd1891d5cab1f82c867a29d128724.jpg%40120w_90h_1e_1c_1l_80q%7Cwatermark%3D1%26%26r%3D1%26p%3D9%26x%3D2%26y%3D2%26relative%3D1%26o%3D20","point":{"coordinates":[113.778157,22.321888],"type":"Point"},"nation":"中国","province":"广东省","city":"深圳市","type":4,"typeName":"快餐简餐","contact":"13542941291","time_interval":"09:00-23:00"}
{"name":"风尚城堡美食城(京粮广场店)","picture":"http://p1.meituan.net/mogu/66cf771e36bb16e42b9f46048c477cab100537.jpg","point":{"coordinates":[113.172004,22.231755],"type":"Point"},"nation":"中国","province":"广东省","city":"深圳市","type":3,"typeName":"快餐简餐","contact":"13780450251","time_interval":"09:00-23:00"}
{"name":"天磊串吧(田村店)","picture":"https://img.meituan.net/msmerchant/b9da8500ee4f81417b5483391301321c229802.png%40120w_90h_1e_1c_1l_80q%7Cwatermark%3D1%26%26r%3D1%26p%3D9%26x%3D2%26y%3D2%26relative%3D1%26o%3D20","point":{"coordinates":[114.8932448,22.377355],"type":"Point"},"nation":"中国","province":"广东省","city":"深圳市","type":7,"typeName":"东北家常菜","contact":"13753336535","time_interval":"09:00-23:00"}
{"name":"呷哺呷哺(海淀田村物美店)","picture":"https://p0.meituan.net/wmproduct/68524040442b4c685a8f978348421b99354965.png%40120w_90h_1e_1c_1l_80q%7Cwatermark%3D1%26%26r%3D1%26p%3D9%26x%3D2%26y%3D2%26relative%3D1%26o%3D20","point":{"coordinates":[114.182342,22.731566],"type":"Point"},"nation":"中国","province":"广东省","city":"深圳市","type":1,"typeName":"快餐简餐","contact":"13287312216","time_interval":"09:00-23:00"}
{"name":"锦绣海鲜","picture":"http://qcloud.dpfile.com/pc/HguGRpl_7llmCSIvDrAx0APh34Pwv3PXyiOGfKWVgZ432iHpQfqTt42Nj-6Xj6n-tOnd3gXQdDYlAqlaVaAFeZ0rYYyiRo_EhzufqWWjTjs.jpg","point":{"coordinates":[114.3657135,22.101642],"type":"Point"},"nation":"中国","province":"广东省","city":"深圳市","type":0,"typeName":"卤味鸭脖","contact":"13930109557","time_interval":"10:00-23:30"}
{"name":"泰熙曼生活","picture":"http://p0.meituan.net/mogu/83e34d49ddfe0062f9248fe56164360459948.jpg","point":{"coordinates":[114.423038,22.555222],"type":"Point"},"nation":"中国","province":"广东省","city":"深圳市","type":3,"typeName":"私房菜","contact":"13349656724","time_interval":"09:00-23:00"}
{"name":"阳坊涮肉","picture":"http://qcloud.dpfile.com/pc/Z5nGV9wqw_mNNXDahkFfi8lOIbzLAkZ8WHM_HOSDOqH7IVnGZWkZOnV-QKNjInIatOnd3gXQdDYlAqlaVaAFeZ0rYYyiRo_EhzufqWWjTjs.jpg","point":{"coordinates":[114.4671677,22.6153887],"type":"Point"},"nation":"中国","province":"广东省","city":"深圳市","type":4,"typeName":"东北家常菜","contact":"13849964617","time_interval":"08:00-22:30"}
{"name":"锅贴 馄饨(京粮广场店)","picture":"https://img.meituan.net/msmerchant/5d6c124ca4dbe83c69d76693efd3bff3217008.jpg%40120w_90h_1e_1c_1l_80q%7Cwatermark%3D1%26%26r%3D1%26p%3D9%26x%3D2%26y%3D2%26relative%3D1%26o%3D20","point":{"coordinates":[113.186636,22.1779704],"type":"Point"},"nation":"中国","province":"广东省","city":"深圳市","type":4,"typeName":"卤味鸭脖","contact":"13718453773","time_interval":"10:00-23:30"}
{"name":"藕遇江南风尚餐厅(京粮广场店)","picture":"http://qcloud.dpfile.com/pc/lRubgCEcqvQcsOxH_wYKJFW2JCjLtQOnQ8a47ORwuDFJcb8USziMZcW327Acsgw2tOnd3gXQdDYlAqlaVaAFeZ0rYYyiRo_EhzufqWWjTjs.jpg","point":{"coordinates":[113.333576,22.87171],"type":"Point"},"nation":"中国","province":"广东省","city":"深圳市","type":1,"typeName":"烤鱼","contact":"13487321558","time_interval":"二十四小时营业"}
{"name":"明洞韩式私房炸鸡(田村店)","picture":"http://qcloud.dpfile.com/pc/Ej1xCc4VL-p8hfMWddyB7MjucelkFvsoiqXEw8Suxmo96l5LP3mYdGq0GKzemWoXtOnd3gXQdDYlAqlaVaAFeZ0rYYyiRo_EhzufqWWjTjs.jpg","point":{"coordinates":[114.42317,22.81926],"type":"Point"},"nation":"中国","province":"广东省","city":"深圳市","type":2,"typeName":"台湾菜","contact":"13668732746","time_interval":"08:00-22:30"}
{"name":"牛街煎饼东北特色烤冷面","picture":"https://img.meituan.net/msmerchant/4b01cd21bd1891d5cab1f82c867a29d128724.jpg%40120w_90h_1e_1c_1l_80q%7Cwatermark%3D1%26%26r%3D1%26p%3D9%26x%3D2%26y%3D2%26relative%3D1%26o%3D20","point":{"coordinates":[114.03061,22.6423678],"type":"Point"},"nation":"中国","province":"广东省","city":"深圳市","type":1,"typeName":"烤串","contact":"13137718031","time_interval":"08:00-22:30"}
{"name":"重庆吃饭公司","picture":"http://qcloud.dpfile.com/pc/9jwrdV7-lY8epKoAK3SF0j2zYe6LcUIM0qorRhiZA2G5m9ai5Dwcre_SlpgUg8LotOnd3gXQdDYlAqlaVaAFeZ0rYYyiRo_EhzufqWWjTjs.jpg","point":{"coordinates":[114.45707,22.545546],"type":"Point"},"nation":"中国","province":"广东省","city":"深圳市","type":0,"typeName":"快餐简餐","contact":"13507525078","time_interval":"09:00-23:00"}
{"name":"渝芙蓉烤全鱼","picture":"http://p0.meituan.net/bbia/56130275e2311ba7698229ee64b9315e204647.jpg","point":{"coordinates":[114.267913,22.324478],"type":"Point"},"nation":"中国","province":"广东省","city":"深圳市","type":4,"typeName":"湘菜","contact":"13442557726","time_interval":"08:00-22:30"}
{"name":"老刺参威海家乡菜(老刺参)","picture":"https://p1.meituan.net/wmproduct/bf8aaebfbf424ad2cca1c8a87876cc1f294599.jpg%40120w_90h_1e_1c_1l_80q%7Cwatermark%3D1%26%26r%3D1%26p%3D9%26x%3D2%26y%3D2%26relative%3D1%26o%3D20","point":{"coordinates":[114.11858,22.2854727],"type":"Point"},"nation":"中国","province":"广东省","city":"深圳市","type":3,"typeName":"老北京火锅","contact":"13417147700","time_interval":"09:00-23:00"}
{"name":"花签签成都冒菜·巫山烤鱼(京粮广场店)","picture":"http://p0.meituan.net/scarlett/d32b07c568bd5feb1b564d269c565275264924.png","point":{"coordinates":[114.644635,22.94077],"type":"Point"},"nation":"中国","province":"广东省","city":"深圳市","type":0,"typeName":"自助餐","contact":"13201175724","time_interval":"08:00-22:30"}
{"name":"望京小腰烤吧(风尚城堡店)","picture":"https://img.meituan.net/msmerchant/f54e77767c2101e882d14386388b7bb54339880.jpg%40120w_90h_1e_1c_1l_80q%7Cwatermark%3D1%26%26r%3D1%26p%3D9%26x%3D2%26y%3D2%26relative%3D1%26o%3D20","point":{"coordinates":[113.35437,22.824169],"type":"Point"},"nation":"中国","province":"广东省","city":"深圳市","type":3,"typeName":"酸菜鱼/水煮鱼","contact":"13141736383","time_interval":"09:00-23:00"}
{"name":"清真金响泉水涮肉(四季青桥店)","picture":"https://img.meituan.net/msmerchant/35c797b7cd7ef390fb6abeec264c5c23345360.jpg%40120w_90h_1e_1c_1l_80q%7Cwatermark%3D1%26%26r%3D1%26p%3D9%26x%3D2%26y%3D2%26relative%3D1%26o%3D20","point":{"coordinates":[114.683285,22.479254],"type":"Point"},"nation":"中国","province":"广东省","city":"深圳市","type":4,"typeName":"老北京火锅","contact":"13466447494","time_interval":"09:00-23:00"}
{"name":"京城百味品香饺子宴(田村店)","picture":"https://p1.meituan.net/deal/3217736cff0296870096da3317747be5872636.jpg%40120w_90h_1e_1c_1l_80q%7Cwatermark%3D1%26%26r%3D1%26p%3D9%26x%3D2%26y%3D2%26relative%3D1%26o%3D20","point":{"coordinates":[114.0866283,22.282317],"type":"Point"},"nation":"中国","province":"广东省","city":"深圳市","type":4,"typeName":"烤鸭","contact":"13348875374","time_interval":"09:00-23:00"}
{"name":"明洞韩式私房炸鸡(田村店)","picture":"https://p1.meituan.net/scproduct/05bd7dba0d2ff102153532503845e1b131985.jpg%40120w_90h_1e_1c_1l_80q%7Cwatermark%3D1%26%26r%3D1%26p%3D9%26x%3D2%26y%3D2%26relative%3D1%26o%3D20","point":{"coordinates":[114.235713,22.774863],"type":"Point"},"nation":"中国","province":"广东省","city":"深圳市","type":5,"typeName":"快餐简餐","contact":"13021422674","time_interval":"10:00-23:30"}